[
  {
    "key": "cinehub",
    "query": "Rua São Bento, 181, Centro, São Paulo, SP, Brasil",
    "display_name": "Rua São Bento, Valongo, Centro, Santos, São Paulo, Região Sudeste, 11010-035, Brasil",
    "lat": -23.93209,
    "lon": -46.3338907,
    "city": "São Paulo",
    "state": "SP",
    "country": "Brasil",
    "place_id": 9246355,
    "osm_type": "way",
    "osm_id": 462453365
  },
  {
    "key": "spcine-leia",
    "query": "Tendal da Lapa, Rua Guaicurus, 1100, São Paulo, SP, Brasil",
    "display_name": "Tendal Da Lapa C/B, 998;1074, Rua Guaicurus, Água Branca, Lapa, São Paulo, Região Sudeste, 05033-001, Brasil",
    "lat": -23.5223479,
    "lon": -46.6961337,
    "city": "São Paulo",
    "state": "SP",
    "country": "Brasil",
    "place_id": 8984232,
    "osm_type": "node",
    "osm_id": 5440099805
  },
  {
    "key": "spcine-hq",
    "query": "Rua Líbero Badaró, 293, Centro, São Paulo, SP, Brasil",
    "display_name": "Rua Líbero Badaró, Centro, Jardim São Luiz, Taquaritinga, São Paulo, Região Sudeste, 15905-028, Brasil",
    "lat": -21.4055714,
    "lon": -48.5114198,
    "city": "São Paulo",
    "state": "SP",
    "country": "Brasil",
    "place_id": 11839607,
    "osm_type": "way",
    "osm_id": 172732312
  },
  {
    "key": "klaxon-brlab",
    "query": "Largo Senador Raul Cardoso, 250, Vila Clementino, São Paulo, SP, Brasil",
    "display_name": "Largo Senador Raul Cardoso, Vila Clementino, Vila Mariana, São Paulo, Região Sudeste, 04021-070, Brasil",
    "lat": -23.5916054,
    "lon": -46.6468201,
    "city": "São Paulo",
    "state": "SP",
    "country": "Brasil",
    "place_id": 8796664,
    "osm_type": "way",
    "osm_id": 203986835
  },
  {
    "key": "etc-filmes",
    "query": "Avenida Queiroz Filho, 1700, Vila Hamburguesa, São Paulo, SP, Brasil",
    "display_name": "Condomínio Villa Lobos Office Park, 1700, Avenida Queiroz Filho, Vila Hamburguesa, Vila Leopoldina, São Paulo, Região Sudeste, 05319-000, Brasil",
    "lat": -23.5434931,
    "lon": -46.7330314,
    "city": "São Paulo",
    "state": "SP",
    "country": "Brasil",
    "place_id": 8969868,
    "osm_type": "way",
    "osm_id": 1052135308
  },
  {
    "key": "sp-audiovisual-hub",
    "query": "Rua Alagoas, 903, Higienópolis, São Paulo, SP, Brasil",
    "display_name": "Fundação Armando Alvares Penteado, 903, Rua Alagoas, Higienópolis, Consolação, São Paulo, Região Sudeste, 01242-902, Brasil",
    "lat": -23.5451082,
    "lon": -46.6629404,
    "city": "São Paulo",
    "state": "SP",
    "country": "Brasil",
    "place_id": 8990174,
    "osm_type": "way",
    "osm_id": 420115993
  },
  {
    "key": "laboratorio-fantasma",
    "query": "Rua Conselheiro Moreira de Barros, 1631, Lauzane Paulista, São Paulo, SP, Brasil",
    "display_name": "Rua Conselheiro Moreira de Barros, Lauzane Paulista, Mandaqui, São Paulo, Região Sudeste, 02430-002, Brasil",
    "lat": -23.479369,
    "lon": -46.6502811,
    "city": "São Paulo",
    "state": "SP",
    "country": "Brasil",
    "place_id": 8562603,
    "osm_type": "way",
    "osm_id": 936519669
  },
  {
    "key": "cinemateca-brasileira",
    "query": "Largo Senador Raul Cardoso, 207, Vila Clementino, São Paulo, SP, Brasil",
    "display_name": "Cinemateca Brasileira, 207, Largo Senador Raul Cardoso, Vila Clementino, Vila Mariana, São Paulo, Região Sudeste, 04021-070, Brasil",
    "lat": -23.5919545,
    "lon": -46.6459896,
    "city": "São Paulo",
    "state": "SP",
    "country": "Brasil",
    "place_id": 8926634,
    "osm_type": "way",
    "osm_id": 33968285
  },
  {
    "key": "legado-tecnologia",
    "query": "Praça Maastricht, 200, Jardim Europa, Bragança Paulista, SP, 12917-021, Brasil",
    "display_name": "200, Praça Maastricht, Jardim Europa, Bragança Paulista, São Paulo, Região Sudeste, 12917-021, Brasil",
    "lat": -22.975991,
    "lon": -46.5454641,
    "city": "Bragança Paulista",
    "state": "SP",
    "country": "Brasil",
    "place_id": 9318661,
    "osm_type": "node",
    "osm_id": 11805946287
  },
  {
    "key": "mackenzie",
    "query": "Rua da Consolação, 930, Consolação, São Paulo, SP, Brasil",
    "display_name": "930, Rua da Consolação, Higienópolis, Consolação, São Paulo, Região Sudeste, 01302-000, Brasil",
    "lat": -23.5481603,
    "lon": -46.6503065,
    "city": "São Paulo",
    "state": "SP",
    "country": "Brasil",
    "place_id": 8902065,
    "osm_type": "node",
    "osm_id": 6807067932
  },
  {
    "key": "futuriste",
    "query": "Vila Mariana, São Paulo, SP, Brasil",
    "display_name": "Vila Mariana, São Paulo, Região Sudeste, Brasil",
    "lat": -23.5837,
    "lon": -46.6327408,
    "city": "São Paulo",
    "state": "SP",
    "country": "Brasil",
    "place_id": 8932891,
    "osm_type": "relation",
    "osm_id": 3049370
  },
  {
    "key": "olabi",
    "query": "Rua Martins Ferreira, 12, Botafogo, Rio de Janeiro, RJ, 22271-010, Brasil",
    "display_name": "12, Rua Martins Ferreira, Primeira Mina, Santa Marta, Botafogo, Rio de Janeiro, Região Sudeste, 22271-010, Brasil",
    "lat": -22.95249,
    "lon": -43.195739,
    "city": "Rio de Janeiro",
    "state": "RJ",
    "country": "Brasil",
    "place_id": 10515557,
    "osm_type": "way",
    "osm_id": 997262335
  },
  {
    "key": "ancine",
    "query": "Avenida Graça Aranha, 35, Centro, Rio de Janeiro, RJ, 20030-002, Brasil",
    "display_name": "Agência Nacional de Cinema (ANCINE), 35, Avenida Graça Aranha, Castelo, Centro, Rio de Janeiro, Região Sudeste, 20030-002, Brasil",
    "lat": -22.9094346,
    "lon": -43.1743469,
    "city": "Rio de Janeiro",
    "state": "RJ",
    "country": "Brasil",
    "place_id": 10481358,
    "osm_type": "node",
    "osm_id": 10773662789
  },
  {
    "key": "bndes",
    "query": "Avenida República do Chile, 100, Centro, Rio de Janeiro, RJ, Brasil",
    "display_name": "BNDES, 100, Avenida República do Chile, Castelo, Centro, Rio de Janeiro, Região Sudeste, 20031-917, Brasil",
    "lat": -22.9085235,
    "lon": -43.1799736,
    "city": "Rio de Janeiro",
    "state": "RJ",
    "country": "Brasil",
    "place_id": 10408066,
    "osm_type": "way",
    "osm_id": 30775735
  },
  {
    "key": "riofilme",
    "query": "Rua das Laranjeiras, 307, Laranjeiras, Rio de Janeiro, RJ, 22240-004, Brasil",
    "display_name": "Casas Casadas - Centro de Referência do Audiovisual do Rio de Janeiro, 307, Rua das Laranjeiras, Laranjeiras, Rio de Janeiro, Região Sudeste, 22240-090, Brasil",
    "lat": -22.9357281,
    "lon": -43.1883773,
    "city": "Rio de Janeiro",
    "state": "RJ",
    "country": "Brasil",
    "place_id": 10509934,
    "osm_type": "way",
    "osm_id": 31123102
  },
  {
    "key": "apan",
    "query": "Avenida Pompeia, 1770, Vila Pompeia, São Paulo, SP, 05022-001, Brasil",
    "display_name": "Avenida Pompeia, Vila Anglo-Brasileira, Perdizes, São Paulo, Região Sudeste, 05022-001, Brasil",
    "lat": -23.5364647,
    "lon": -46.6893784,
    "city": "São Paulo",
    "state": "SP",
    "country": "Brasil",
    "place_id": 8975307,
    "osm_type": "way",
    "osm_id": 587562748
  },
  {
    "key": "tania-aedo",
    "query": "Laboratorio Arte Alameda, Mexico City, Mexico",
    "display_name": "Ex Convento de San Diego / Pinacoteca Virreinal / Laboratorio Arte Alameda, 7, Calle Balderas, Centro, Ciudad de México, Cuauhtémoc, Ciudad de México, 06050, México",
    "lat": 19.4365854,
    "lon": -99.146804,
    "city": "Ciudad de México",
    "state": "CDMX",
    "country": "México",
    "place_id": 310979870,
    "osm_type": "way",
    "osm_id": 276602465
  },
  {
    "key": "ive-rubini",
    "query": "UNESP, São Paulo, SP, Brasil",
    "display_name": "Universidade Estadual Paulista, 1515, Avenida Vinte e Quatro A, Vila Alemã, Bela Vista, Rio Claro, São Paulo, Região Sudeste, 13506-900, Brasil",
    "lat": -22.3957568,
    "lon": -47.5441355,
    "city": "São Paulo",
    "state": "SP",
    "country": "Brasil",
    "place_id": 9546462,
    "osm_type": "way",
    "osm_id": 479380314
  },
  {
    "key": "wotec",
    "query": "Zona Oeste, Rio de Janeiro, RJ, Brasil",
    "display_name": "Zona Oeste do Rio de Janeiro, Rio de Janeiro, Região Sudeste, Brasil",
    "lat": -22.9459867,
    "lon": -43.5196984,
    "city": "Rio de Janeiro",
    "state": "RJ",
    "country": "Brasil",
    "place_id": 10453558,
    "osm_type": "relation",
    "osm_id": 7222515
  },
  {
    "key": "monica-rizzolli",
    "query": "Kassel, Germany",
    "display_name": "Kassel, Hessen, Deutschland",
    "lat": 51.3157833,
    "lon": 9.4978479,
    "city": "Kassel",
    "state": "Hesse",
    "country": "Alemanha",
    "place_id": 139148139,
    "osm_type": "relation",
    "osm_id": 62598
  },
  {
    "key": "regina-silveira",
    "query": "São Paulo, SP, Brasil",
    "display_name": "São Paulo, Região Sudeste, Brasil",
    "lat": -23.5506507,
    "lon": -46.6333824,
    "city": "São Paulo",
    "state": "SP",
    "country": "Brasil",
    "place_id": 9026556,
    "osm_type": "relation",
    "osm_id": 298285
  },
  {
    "key": "shari-frilot",
    "query": "Park City, UT, USA",
    "display_name": "Park City, Summit County, Utah, United States",
    "lat": 40.6460921,
    "lon": -111.4979963,
    "city": "Park City",
    "state": "UT",
    "country": "EUA",
    "place_id": 324915304,
    "osm_type": "relation",
    "osm_id": 198864
  },
  {
    "key": "caspar-sonnen",
    "query": "Amsterdam, Netherlands",
    "display_name": "Amsterdam, Noord-Holland, Nederland",
    "lat": 52.3730796,
    "lon": 4.8924534,
    "city": "Amsterdam",
    "state": "Noord-Holland",
    "country": "Holanda",
    "place_id": 157078891,
    "osm_type": "relation",
    "osm_id": 271110
  },
  {
    "key": "jess-search",
    "query": "London, United Kingdom",
    "display_name": "Greater London, England, United Kingdom",
    "lat": 51.5074456,
    "lon": -0.1277653,
    "city": "Londres",
    "state": "England",
    "country": "Reino Unido",
    "place_id": 281075796,
    "osm_type": "relation",
    "osm_id": 175342
  },
  {
    "key": "emilio-martinez",
    "query": "Valencia, Spain",
    "display_name": "València, Comarca de València, València / Valencia, Comunitat Valenciana, España",
    "lat": 39.4697065,
    "lon": -0.3763353,
    "city": "Valencia",
    "state": "Comunidad Valenciana",
    "country": "Espanha",
    "place_id": 294213785,
    "osm_type": "relation",
    "osm_id": 344953
  }
]